[ 
    {
        "id": 0,
        "name": "Bergamo",
        "latitude": 45.69, 
        "longitude":9.67
    },
    {
        "id": 1,
        "name": "Milan",
        "latitude": 45.46, 
        "longitude":9.18
    },
    {
        "id": 2,
        "name": "Dakar",
        "latitude": 14.71, 
        "longitude":-17.47
    },
    {
        "id": 3,
        "name": "Ho Chi Minh",
        "latitude": 10.83, 
        "longitude":106.66
    },
    {
        "id": 4,
        "name": "Koln",
        "latitude": 50.94, 
        "longitude":6.94
    },
    {
        "id": 5,
        "name": "Moulins",
        "latitude": 46.56, 
        "longitude":3.32
    },
    {
        "id": 6,
        "name": "Budapest",
        "latitude": 47.49, 
        "longitude":19.04
    },
    {
        "id": 7,
        "name": "Cape Town",
        "latitude": -33.92, 
        "longitude": 18.39
    }
]